{
  "stations": [
    {
      "id": "AT5854",
      "brand": "atlantsolia",
      "name": "Öskjuhlíð",
      "address": "Flugvallavegur, 101 Reykjavík",
      "longitude": -21.923792,
      "latitude": 64.131921,
      "region": "Höfuðborgarsvæðið",
      "url": "/stodvar/oskjuhlid/"
    },
    {
      "id": "AT0495",
      "brand": "atlantsolia",
      "name": "Skeifan",
      "address": "Skeifan 5, 108 Reykjavík",
      "longitude": -21.87077,
      "latitude": 64.132171,
      "region": "Höfuðborgarsvæðið",
      "url": "/stodvar/skeifan/"
    },
    {
      "id": "AT9146",
      "brand": "atlantsolia",
      "name": "Sprengisandur",
      "address": "Bústaðavegur 151, 103 Reykjavík",
      "longitude": -21.847966,
      "latitude": 64.120944,
      "region": "Höfuðborgarsvæðið",
      "url": "/stodvar/sprengisandur/"
    },
    {
      "id": "AT5216",
      "brand": "atlantsolia",
      "name": "Bíldshöfði",
      "address": "Bíldshöfði 20, 108 Reykjavík",
      "longitude": -21.813054,
      "latitude": 64.125397,
      "region": "Höfuðborgarsvæðið",
      "url": "/stodvar/bildshofdi/"
    },
    {
      "id": "AT7417",
      "brand": "atlantsolia",
      "name": "Kópavogsbraut",
      "address": "Kópavogsbraut 115, 200 Kópavogur",
      "longitude": -21.935749,
      "latitude": 64.11123,
      "region": "Höfuðborgarsvæðið",
      "url": "/stodvar/kopavogsbraut/"
    },
    {
      "id": "AT4254",
      "brand": "atlantsolia",
      "name": "Búðarkór",
      "address": "Búðarkór 1, 203 Kópavogur",
      "longitude": -21.832666,
      "latitude": 64.087301,
      "region": "Höfuðborgarsvæðið",
      "url": "/stodvar/budarkor/"
    },
    {
      "id": "AT7751",
      "brand": "atlantsolia",
      "name": "Kaplakriki",
      "address": "Flatarhraun, 220 Hafnarfjörður",
      "longitude": -21.937938,
      "latitude": 64.076553,
      "region": "Höfuðborgarsvæðið",
      "url": "/stodvar/kaplakriki/"
    },
    {
      "id": "AT4847",
      "brand": "atlantsolia",
      "name": "Hafnarfjarðarhöfn",
      "address": " Óseyrarbraut 23, 220 Hafnarfjörður",
      "longitude": -21.976237541538865,
      "latitude": 64.06488844353188,
      "region": "Höfuðborgarsvæðið",
      "url": "/stodvar/hafnarfjardarhofn/"
    },
    {
      "id": "AT8881",
      "brand": "atlantsolia",
      "name": "Njarðvík",
      "address": "Hólagötu 20, 260 Reykjanesbær",
      "longitude": -22.549396,
      "latitude": 63.987463,
      "region": "Suðurnes",
      "url": "/stodvar/njardvik/"
    },
    {
      "id": "AT5814",
      "brand": "atlantsolia",
      "name": "Akureyri Baldursnes",
      "address": "Baldursnes 6, 603 Akureyri",
      "longitude": -18.135231,
      "latitude": 65.69913,
      "region": "Norðurland eystra",
      "url": "/stodvar/akureyri-baldursnes/"
    },
    {
      "id": "AT3426",
      "brand": "atlantsolia",
      "name": "Skúlagata ",
      "address": "Skúlagata 15, 101 Reykjavík",
      "longitude": -21.918754822854197,
      "latitude": 64.14574006950215,
      "region": "Höfuðborgarsvæðið",
      "url": "/stodvar/skulagata/"
    },
    {
      "id": "AT2726",
      "brand": "atlantsolia",
      "name": "Selfoss",
      "address": "Fossnes 9, 801 Selfoss",
      "longitude": -21.013048,
      "latitude": 63.946582,
      "region": "Suðurland",
      "url": "/stodvar/selfoss/"
    },
    {
      "id": "AT8625",
      "brand": "atlantsolia",
      "name": "Borgarnes",
      "address": "Vallarás 17, 310 Borgarnes",
      "longitude": -21.893026024686247,
      "latitude": 64.5677806238133,
      "region": "Vesturland",
      "url": "/stodvar/borgarnes/"
    },
    {
      "id": "AT9463",
      "brand": "atlantsolia",
      "name": "Hveragerði\n",
      "address": "Sunnumörk 6, 810 Hveragerði",
      "longitude": -21.185724022719807,
      "latitude": 63.99419816287918,
      "region": "Suðurland",
      "url": "/stodvar/hveragerdi/"
    },
    {
      "id": "AT9664",
      "brand": "atlantsolia",
      "name": "Mosfellsbær\n",
      "address": "Sunnukriki 2, 270 Mosfellsbær",
      "longitude": -21.690331239641306,
      "latitude": 64.16392419959291,
      "region": "Höfuðborgarsvæðið",
      "url": "/stodvar/mosfellsbaer/"
    },
    {
      "id": "AT2643",
      "brand": "atlantsolia",
      "name": "Skemmuvegi",
      "address": "Breiddin - Skemmuvegur 4, 200 Kópavogur",
      "longitude": -21.853134625166106,
      "latitude": 64.11020420462577,
      "region": "Höfuðborgarsvæðið",
      "url": "/stodvar/skemmuvegi/"
    },
    {
      "id": "AT5139",
      "brand": "atlantsolia",
      "name": "Akureyri Glerártorg",
      "address": "Glerártorg, 600 Akureyri",
      "longitude": -18.099932538248144,
      "latitude": 65.68778787712338,
      "region": "Norðurland eystra",
      "url": "/stodvar/akureyri-glerartorg/"
    },
    {
      "id": "AT5886",
      "brand": "atlantsolia",
      "name": "Stykkishólmur",
      "address": "Aðalgata 35, 340 Stykkishólmur",
      "longitude": -22.733996,
      "latitude": 65.07074,
      "region": "Vesturland",
      "url": "/stodvar/stykkisholmur/"
    },
    {
      "id": "AT1424",
      "brand": "atlantsolia",
      "name": "Egilsstaðir",
      "address": "Fagradalsbraut 15, 700 Egilsstaðir",
      "longitude": -14.39674201614614,
      "latitude": 65.26021476954202,
      "region": "Austurland",
      "url": "/stodvar/egilsstadir/"
    },
    {
      "id": "AT9003",
      "brand": "atlantsolia",
      "name": "Háaleiti",
      "address": "Háaleitisbraut 12, 108 Reykjavík",
      "longitude": -21.890950853930736,
      "latitude": 64.13742729882236,
      "region": "Höfuðborgarsvæðið",
      "url": "/stodvar/haaleitisbraut/"
    },
    {
      "id": "AT0062",
      "brand": "atlantsolia",
      "name": "Starengi ",
      "address": "Starengi 2, 112 Reykjavík",
      "longitude": -21.77368749202191,
      "latitude": 64.15097623417796,
      "region": "Höfuðborgarsvæðið",
      "url": "/stodvar/starengi/"
    },
    {
      "id": "AT9567",
      "brand": "atlantsolia",
      "name": "Knarrarvogur ",
      "address": "Knarrarvogur 2, 104 Reykjavík",
      "longitude": -21.84830342545498,
      "latitude": 64.12796777531217,
      "region": "Höfuðborgarsvæðið",
      "url": "/stodvar/knarrarvogur/"
    },
    {
      "id": "AT3270",
      "brand": "atlantsolia",
      "name": "Kirkjustétt",
      "address": "Kirkjustétt 2-6, 113 Reykjavík",
      "longitude": -21.75672474639996,
      "latitude": 64.12662083094149,
      "region": "Höfuðborgarsvæðið",
      "url": "/stodvar/kirkjustett/"
    },
    {
      "id": "AT9299",
      "brand": "atlantsolia",
      "name": "Kjalarnes ",
      "address": "Vallargrund 1-3, 116 Reykjavík",
      "longitude": -21.82986184603698,
      "latitude": 64.24195717384721,
      "region": "Höfuðborgarsvæðið",
      "url": "/stodvar/kjalarnes/"
    },
    {
      "id": "AT6038",
      "brand": "atlantsolia",
      "name": "Stapabraut",
      "address": "Stapabraut 21, 260 Reykjanesbær",
      "longitude": -22.510542,
      "latitude": 63.970958,
      "region": "Suðurnes",
      "url": "/stodvar/stapabraut/"
    }
  ]
}