{
  "stations": [
    {
      "id": "OB9391",
      "brand": "Ob",
      "name": "Búðardalur",
      "address": "Búðardalur",
      "longitude": null,
      "latitude": null,
      "region": null,
      "url": null
    },
    {
      "id": "OB3227",
      "brand": "Ob",
      "name": "Ketilás",
      "address": "Ketilás, 570 Fljót",
      "longitude": -19.016950,
      "latitude": 66.050730,
      "region": "Norðurland vestra",
      "url": null
    },
    {
      "id": "OB1402",
      "brand": "Ob",
      "name": "Akureyri Hlíðarbraut",
      "address": "Borgarbraut 600, 603 Akureyri",
      "longitude": -18.128710,
      "latitude": 65.687043, 
      "region": "Norðurland eystra",
      "url": null
    },
    {
      "id": "OB4868",
      "brand": "Ob",
      "name": "Arnarsmári",
      "address": "Arnarsmári 32, 201 Kópavogur",
      "longitude": -21.896234,
      "latitude": 64.0982465,
      "region": "Höfuðborgarsvæðið",
      "url": null
    },
    {
      "id": "OB4710",
      "brand": "Ob",
      "name": "Borgarnes",
      "address": "Brúartorg 8, 310 Borgarnes",
      "longitude": -21.9082248,
      "latitude": 64.5444358,
      "region": "Vesturland",
      "url": null
    },
    {
      "id": "OB6792",
      "brand": "Ob",
      "name": "Bæjarlind",
      "address": "Bæjarlind 18, 201 Kópavogur",
      "longitude": -21.8807864,
      "latitude": 64.099141,
      "region": "Höfuðborgarsvæðið",
      "url": null
    },
    {
      "id": "OB8195",
      "brand": "Ob",
      "name": "Fjarðarkaup",
      "address": "Hólshraun 1, 220 Hafnarfjörður",
      "longitude": -21.9391292,
      "latitude": 64.0817208,
      "region": "Höfuðborgarsvæðið",
      "url": null
    },
    {
      "id": "OB0904",
      "brand": "Ob",
      "name": "Hamraborg",
      "address": "Hamraborg 12, 200 Kópavogur",
      "longitude": -21.905735,
      "latitude": 64.112164,
      "region": "Höfuðborgarsvæðið",
      "url": null
    },
    {
      "id": "OB3643",
      "brand": "Ob",
      "name": "Klöpp",
      "address": "Skúlagata 9, 101 Reykjavík",
      "longitude": -21.924838,
      "latitude": 64.147663,
      "region": "Höfuðborgarsvæðið",
      "url": null
    },
    {
      "id": "OB3935",
      "brand": "Ob",
      "name": "Selfoss",
      "address": "ÓB,Arnberg, Selfoss, Sveitarfélagið Árborg, Suðurland, 800",
      "longitude": -21.0070141,
      "latitude": 63.9437759,
      "region": "Suðurland",
      "url": null
    },
    {
      "id": "OB4832",
      "brand": "Ob",
      "name": "Stykkishólmur",
      "address": "Aðalgata 25, 340 Stykkishólmur",
      "longitude": -22.733101,
      "latitude": 65.0721555,
      "region": "Vesturland",
      "url": null
    },
    {
      "id": "OB0123",
      "brand": "Ob",
      "name": "Njarðvík",
      "address": "Aðalgata 62, 230 Keflavík",
      "longitude": -22.5881634,
      "latitude": 63.9980944,
      "region": "Suðurnes",
      "url": null
    },
    {
      "id": "OB7412",
      "brand": "Ob",
      "name": "Sjafnargötu, Akureyri",
      "address": "Sjafnargata 2, 603 Akureyri",
      "longitude": -18.144098,
      "latitude": 65.699982,
      "region": "Norðurland eystra",
      "url": null
    },
    {
      "id": "OB7617",
      "brand": "Ob",
      "name": "Ísafjörður",
      "address": "Sindragata, 400 Ísafjörður",
      "longitude": -23.1220164,
      "latitude": 66.0685834,
      "region": "Vestfirðir",
      "url": null
    },
    {
      "id": "OB2661",
      "brand": "Ob",
      "name": "Vík",
      "address": "Austurvegur 16, 870 Vík",
      "longitude": -19.0024444,
      "latitude": 63.4179504,
      "region": "Suðurland",
      "url": null
    },
    {
      "id": "OB2341",
      "brand": "Ob",
      "name": "Fellabær",
      "address": "Lagarfell 2, 700 Fellabær",
      "longitude":  -14.425537,
      "latitude": 65.282394,
      "region": "Austurland",
      "url": null
    },
    {
      "id": "OB4363",
      "brand": "Ob",
      "name": "Akranes Esjubraut",
      "address": "ÓB, Esjubraut, Miðbær, Akraneskaupstaður, Vesturland, 300",
      "longitude": -22.0678968,
      "latitude": 64.3244228,
      "region": "Vesturland",
      "url": null
    },
    {
      "id": "OB6966",
      "brand": "Ob",
      "name": "Akranes Suðurgötu",
      "address": "10, Suðurgata, Teigar, Akraneskaupstaður, Vesturland, 300",
      "longitude": -22.0880807,
      "latitude": 64.3140582,
      "region": "Vesturland",
      "url": null
    },
    {
      "id": "OB7437",
      "brand": "Ob",
      "name": "Akureyri BSÓ",
      "address": "ÓB, Strandgata, Miðbær, Akureyri, Norðurland eystra, 600",
      "longitude": -18.089598,
      "latitude":65.683506,
      "region": "Norðurland eystra",
      "url": null
    },
    {
      "id": "OB0723",
      "brand": "Ob",
      "name": "Arnarstapi",
      "address": "Olis, Arnarstapavegur, Arnarstapi, Snæfellsbær, Vesturland",
      "longitude": -23.633896,
      "latitude": 64.766648,
      "region": "Vesturland",
      "url": null
    },
    {
      "id": "OB1627",
      "brand": "Ob",
      "name": "Barðastaðir",
      "address": "Barðastaðir 3, 112 Reykjavík",
      "longitude": -21.751744,
      "latitude": 64.156241,
      "region": "Höfuðborgarsvæðið",
      "url": null
    },
    {
      "id": "OB9968",
      "brand": "Ob",
      "name": "Bíldshöfða",
      "address": "Bíldshöfði 5, 110 Reykjavík",
      "longitude": -21.8322568,
      "latitude": 64.1247612,
      "region": "Höfuðborgarsvæðið",
      "url": null
    },
    {
      "id": "OB9767",
      "brand": "Ob",
      "name": "Blönduós",
      "address": "Hnjúkabyggð 34, 540 Blönduós",
      "longitude": -20.2849105,
      "latitude": 65.6563164,
      "region": "Norðurland vestra",
      "url": null
    },
    {
      "id": "OB9660",
      "brand": "Ob",
      "name": "Bolungarvík",
      "address": "Búðarkantur, 415 Bolungarvik",
      "longitude": -23.2470791,
      "latitude": 66.1574107,
      "region": "Vestfirðir",
      "url": null
    },
    {
      "id": "OB5610",
      "brand": "Ob",
      "name": "Eyrarbakki",
      "address": "ÓB, Eyrargata, Eyrarbakki, Sveitarfélagið Árborg, Suðurland, 820",
      "longitude": -21.147972,
      "latitude": 63.8623682,
      "region": "Suðurland",
      "url": null
    },
    {
      "id": "OB9485",
      "brand": "Ob",
      "name": "Ferstikla",
      "address": "Ferstikluskáli, Hvalfjarðarsveit, Vesturland, 301, Islandia",
      "longitude": -21.597536,
      "latitude": 64.410117,
      "region": "Vesturland",
      "url": null
    },
    {
      "id": "OB7192",
      "brand": "Ob",
      "name": "Grindavík",
      "address": "ÓB, Hafnargata, Grindavík, Grindavíkurbær, Suðurnes, 240",
      "longitude": -22.433846,
      "latitude": 63.8396526,
      "region": "Suðurnes",
      "url": null
    },
    {
      "id": "OB9992",
      "brand": "Ob",
      "name": "Grundartangi",
      "address": "ÓB, Katanesvegur, Hvalfjarðarsveit, Vesturland",
      "longitude": -21.780605,
      "latitude":64.358903,
      "region": "Vesturland",
      "url": null
    },
    {
      "id": "OB7614",
      "brand": "Ob",
      "name": "Hólmavík",
      "address": "Hólmavík",
      "longitude": -21.692822,
      "latitude": 65.701328,
      "region": null,
      "url": null
    },
    {
      "id": "OB7432",
      "brand": "Ob",
      "name": "Húsavík",
      "address": "ÓB, Skeiði, Hólmavík, Strandabyggð, Vestfirðir, 510",
      "longitude": -17.3434828,
      "latitude": 66.0390056,
      "region": "Vestfirðir",
      "url": null
    },
    {
      "id": "OB8148",
      "brand": "Ob",
      "name": "Keflavík",
      "address": "Aðalgata 62, 230 Keflavík",
      "longitude": -22.5881634,
      "latitude": 63.9980944,
      "region": "SuðurnesS",
      "url": null
    },
    {
      "id": "OB8310",
      "brand": "Ob",
      "name": "Keflavíkurflugvöllur",
      "address": "Keflavíkurflugvöllur",
      "longitude": null,
      "latitude": null,
      "region": null,
      "url": null
    },
    {
      "id": "OB6596",
      "brand": "Ob",
      "name": "Kirkjubæjarklaustur",
      "address": "ÓB, Iðjuvellir, Kirkjubæjarklaustur, Skaftárhreppur, Suðurland, 880",
      "longitude": -18.0387367,
      "latitude": 63.7945668,
      "region": "Suðurland",
      "url": null
    },
    {
      "id": "OB8330",
      "brand": "Ob",
      "name": "Landvegamót",
      "address": "ÓB, Vegamót, Rangárþing ytra, Suðurland",
      "longitude": -20.500735,
      "latitude": 63.879499,
      "region": "Suðurland",
      "url": null
    },
    {
      "id": "OB9644",
      "brand": "Ob",
      "name": "Laugabakki",
      "address": "ÓB, Miðfjarðarvegur, Laugarbakki, Húnaþing vestra, Norðurland vestra",
      "longitude": -20.892378,
      "latitude": 65.325984,
      "region": "Norðurland vestra",
      "url": null
    },
    {
      "id": "OB2826",
      "brand": "Ob",
      "name": "Melabraut",
      "address": "Melabraut 11, 220 Hafnarfjörður",
      "longitude": -21.9714955,
      "latitude": 64.0590616,
      "region": "Höfuðborgarsvæðið",
      "url": null
    },
    {
      "id": "OB9161",
      "brand": "Ob",
      "name": "Minni Borg",
      "address": "Minni Borg Grímsnes og Grafningshreppur, 801",
      "longitude": -20.764251,
      "latitude": 64.074716,
      "region": "Suðurland",
      "url": null
    },
    {
      "id": "OB2021",
      "brand": "Ob",
      "name": "Neskaupstaður",
      "address": "Hafnarbraut 19, 740 Neskaupstaður",
      "longitude": -13.6946434,
      "latitude": 65.147649,
      "region": "Austurland",
      "url": null
    },
    {
      "id": "OB1619",
      "brand": "Ob",
      "name": "Ólafsfjörður",
      "address": "Bylgjubyggð 2, 625 Ólafsfjörður",
      "longitude": -18.654453,
      "latitude": 66.069931,
      "region": "Norðurland eystra",
      "url": null
    },
    {
      "id": "OB7334",
      "brand": "Ob",
      "name": "Reyðarfjörður",
      "address": "Búðareyri 33, 730 Reyðarfjörður",
      "longitude": -14.231289,
      "latitude": 65.034150,
      "region": "Austurland",
      "url": null
    },
    {
      "id": "OB7921",
      "brand": "Ob",
      "name": "Sauðárkrókur",
      "address": "Borgarflöt 31, 550 Sauðárkrókur",
      "longitude": -19.6268406,
      "latitude": 65.7439564,
      "region": "Norðurland vestra",
      "url": null
    },
    {
      "id": "OB9188",
      "brand": "Ob",
      "name": "Skagaströnd",
      "address": "Olís, Oddagata, Skagaströnd, Sveitarfélagið Skagaströnd, Norðurland vestra, 545",
      "longitude": -20.305974,
      "latitude": 65.823812,
      "region": "Norðurland vestra",
      "url": null
    },
    {
      "id": "OB4682",
      "brand": "Ob",
      "name": "Suðurhella",
      "address": "ÓB, Suðurhella, Selhraun, Hellur, Hafnarfjarðarkaupstaður, Höfuðborgarsvæðið, 221",
      "longitude": -21.9863315,
      "latitude": 64.0445671,
      "region": "Höfuðborgarsvæðið",
      "url": null
    },
    {
      "id": "OB1789",
      "brand": "Ob",
      "name": "Varmahlíð",
      "address": "Olís, Varmahlíð, Skagafjörður, Norðurland vestra, 560",
      "longitude":-19.446745,
      "latitude": 65.553683, 
      "region": "Norðurland vestra",
      "url": null
    },
    {
      "id": "OB3864",
      "brand": "Ob",
      "name": "Vestmannaeyjum",
      "address": "Strandvegur 44, 900 Vestmannaeyjabær",
      "longitude": -20.270556,
      "latitude": 63.442364,
      "region": "Suðurland",
      "url": null
    },
    {
      "id": "OB4869",
      "brand": "Ob",
      "name": "Þorlákshöfn",
      "address": "Óseyrarbraut 6 800, 800 Þorlákshöfn",
      "longitude": -21.3742343,
      "latitude": 63.8563034,
      "region": "Suðurland",
      "url": null
    }
  ]
}